City_ID,City,Lat,Lng,Max Temp,Humidity,Cloudiness,Wind Speed,Country,Date,Data
0,invercargill,-46.4,168.35,15.57,69,43,7.15,NZ,1707347627,2024-02-07
1,great falls,47.5002,-111.3008,-3.34,86,100,3.6,US,1707347627,2024-02-07
2,yellowknife,62.456,-114.3525,-15.33,90,100,3.58,CA,1707347319,2024-02-07
3,waitangi,-43.9535,-176.5597,19.34,89,70,2.36,NZ,1707347280,2024-02-07
4,edinburgh of the seven seas,-37.0676,-12.3116,17.39,66,64,1.83,SH,1707347628,2024-02-07
5,boguchany,58.3814,97.4531,-18.32,100,97,0.64,RU,1707347628,2024-02-07
6,lander,42.833,-108.7307,6.33,74,0,1.54,US,1707347629,2024-02-07
7,sarupathar,26.1984,93.8094,12.81,93,30,0.61,IN,1707347629,2024-02-07
8,adamstown,-25.066,-130.1015,24.7,84,100,9.34,PN,1707347337,2024-02-07
9,grytviken,-54.2811,-36.5092,10.15,65,100,6.0,GS,1707347630,2024-02-07
10,margaret river,-33.95,115.0667,19.73,46,0,1.68,AU,1707347630,2024-02-07
11,tazovsky,67.4667,78.7,-11.31,96,100,4.92,RU,1707347630,2024-02-07
12,bilibino,68.0546,166.4372,-36.13,100,98,0.21,RU,1707347371,2024-02-07
13,papatowai,-46.5619,169.4708,15.36,55,29,8.56,NZ,1707347472,2024-02-07
14,la gi,10.6667,107.7833,23.29,92,81,3.34,VN,1707347631,2024-02-07
15,blackmans bay,-43.0167,147.3167,19.74,65,72,0.89,AU,1707347318,2024-02-07
16,utrik,11.2278,169.8474,26.56,78,100,9.3,MH,1707347340,2024-02-07
17,taiyuan,37.8694,112.5603,-8.08,73,100,1.0,CN,1707347632,2024-02-07
18,isangel,-19.55,169.2667,27.87,69,91,5.49,VU,1707347474,2024-02-07
19,grants,35.1473,-107.8514,3.13,48,75,8.23,US,1707347633,2024-02-07
20,arawa,-6.2132,155.5367,30.63,68,100,1.04,PG,1707347633,2024-02-07
21,port-aux-francais,-49.35,70.2167,4.73,75,94,12.78,TF,1707347298,2024-02-07
22,enumclaw,47.2043,-121.9915,8.9,80,49,1.79,US,1707347448,2024-02-07
23,tam ky,15.5667,108.4833,22.04,95,22,0.91,VN,1707347635,2024-02-07
24,iron river,46.0927,-88.6423,8.42,68,100,3.14,US,1707347636,2024-02-07
25,albany,42.6001,-73.9662,2.42,65,71,1.02,US,1707347636,2024-02-07
26,tolanaro,-25.0319,46.9987,23.64,95,44,2.33,MG,1707347425,2024-02-07
27,kununurra,-15.7667,128.7333,25.99,78,100,4.12,AU,1707347328,2024-02-07
28,whitehorse,60.7161,-135.0538,-12.72,91,91,1.79,CA,1707347320,2024-02-07
29,olonkinbyen,70.9221,-8.7187,-3.71,82,91,8.08,SJ,1707347308,2024-02-07
30,badger,64.8,-147.5333,-8.26,81,75,0.0,US,1707347407,2024-02-07
31,nantucket,41.2835,-70.0995,2.06,80,100,7.46,US,1707347455,2024-02-07
32,namasuba,0.6894,32.4214,19.49,78,31,0.99,UG,1707347639,2024-02-07
33,college,64.8569,-147.8028,-8.22,78,75,0.0,US,1707347367,2024-02-07
34,jamestown,42.097,-79.2353,6.8,45,0,0.45,US,1707347106,2024-02-07
35,hawaiian paradise park,19.5933,-154.9731,24.46,80,75,3.09,US,1707347354,2024-02-07
36,hlusk,52.903,28.6845,-4.06,83,45,2.79,BY,1707347641,2024-02-07
37,stanley,54.868,-1.6985,-0.82,91,0,1.54,GB,1707347162,2024-02-07
38,wailua homesteads,22.0669,-159.378,26.24,68,75,7.72,US,1707347321,2024-02-07
39,udachny,66.4167,112.4,-29.6,100,100,1.16,RU,1707347033,2024-02-07
40,port alfred,-33.5906,26.891,17.32,85,0,0.45,ZA,1707347365,2024-02-07
41,dan gora,11.5349,8.1522,17.77,22,37,3.65,NG,1707347642,2024-02-07
42,westport,41.1415,-73.3579,6.03,64,0,1.54,US,1707347300,2024-02-07
43,fort st. john,56.2499,-120.8529,-7.06,73,75,1.03,CA,1707347001,2024-02-07
44,mecitozu,40.52,35.2953,1.27,61,100,2.47,TR,1707347643,2024-02-07
45,coxen hole,16.3244,-86.5366,24.6,57,75,2.57,HN,1707347643,2024-02-07
46,kovalam,8.3667,76.9967,25.05,73,20,0.51,IN,1707347644,2024-02-07
47,kokopo,-4.352,152.2633,27.08,86,100,6.82,PG,1707347644,2024-02-07
48,howrah,22.5892,88.3103,17.0,72,2,3.09,IN,1707347644,2024-02-07
49,la passe,45.5549,-0.8967,12.77,93,100,7.82,FR,1707347418,2024-02-07
50,arraial do cabo,-22.9661,-42.0278,26.15,85,100,2.43,BR,1707347302,2024-02-07
51,avarua,-21.2078,-159.775,28.03,78,75,8.23,CK,1707347305,2024-02-07
52,minas de marcona,-15.2119,-75.1103,20.45,88,89,5.26,PE,1707347363,2024-02-07
53,atafu village,-8.5421,-172.5159,28.17,81,100,8.05,TK,1707347315,2024-02-07
54,bethel,41.3712,-73.414,4.87,55,0,0.0,US,1707347253,2024-02-07
55,punta arenas,-53.15,-70.9167,12.06,62,40,13.38,CL,1707347294,2024-02-07
56,troitsko-pechorsk,62.7084,56.1964,-9.06,95,100,3.58,RU,1707347647,2024-02-07
57,nar'yan-mar,67.6713,53.087,-20.5,98,100,4.47,RU,1707347647,2024-02-07
58,petropavlovsk-kamchatsky,53.0452,158.6483,-12.67,61,20,3.0,RU,1707347346,2024-02-07
59,assab,13.0092,42.7394,25.51,77,39,10.78,ER,1707347648,2024-02-07
60,port elizabeth,-33.918,25.5701,19.62,78,6,2.24,ZA,1707347305,2024-02-07
61,baraolt,46.0751,25.6003,7.09,86,75,4.04,RO,1707347648,2024-02-07
62,joaima,-16.6542,-41.0306,25.56,73,96,0.84,BR,1707347649,2024-02-07
63,lerwick,60.1545,-1.1494,1.0,63,54,6.39,GB,1707347341,2024-02-07
64,bishnupur,23.0833,87.3167,16.91,29,5,2.11,IN,1707347649,2024-02-07
65,puerto ayora,-0.7393,-90.3518,28.98,94,74,2.68,EC,1707347335,2024-02-07
66,lebu,-37.6167,-73.65,14.91,73,99,9.44,CL,1707347366,2024-02-07
67,yakeshi,49.2833,120.7333,-31.67,100,97,1.19,CN,1707347651,2024-02-07
68,mbanza-ngungu,-5.25,14.8667,21.17,92,51,1.2,CD,1707347651,2024-02-07
69,ushuaia,-54.8,-68.3,8.81,61,40,9.77,AR,1707347123,2024-02-07
70,new norfolk,-42.7826,147.0587,20.4,54,63,1.42,AU,1707347302,2024-02-07
71,nova sintra,14.8667,-24.7167,21.66,75,0,4.83,CV,1707347310,2024-02-07
72,xinji,37.9028,115.2036,-0.58,73,100,1.15,CN,1707347652,2024-02-07
73,kharan,28.5833,65.4167,13.51,25,0,2.25,PK,1707347478,2024-02-07
74,vilyuchinsk,52.9306,158.4028,-11.85,86,100,1.83,RU,1707347329,2024-02-07
75,argo,37.6333,22.7333,12.23,51,100,2.01,GR,1707347653,2024-02-07
76,kerema,-7.9631,145.7785,25.48,87,100,1.84,PG,1707347654,2024-02-07
77,gutierrez zamora,20.45,-97.0833,24.9,72,11,6.25,MX,1707347654,2024-02-07
78,west island,-12.1568,96.8225,25.99,94,75,2.06,CC,1707347654,2024-02-07
79,port lincoln,-34.7333,135.8667,18.13,69,40,5.57,AU,1707347346,2024-02-07
80,iqaluit,63.7506,-68.5145,-26.0,96,100,0.75,CA,1707347288,2024-02-07
81,dakhla,23.6848,-15.958,20.48,55,78,4.7,EH,1707347527,2024-02-07
82,jayapura,-2.5333,140.7,27.66,85,100,1.57,ID,1707347347,2024-02-07
83,tchibanga,-2.85,11.0333,22.45,95,100,1.0,GA,1707347656,2024-02-07
84,winkler,49.1817,-97.941,2.1,100,98,4.12,CA,1707347656,2024-02-07
85,ierapetra,35.01,25.7353,13.97,76,100,7.54,GR,1707347657,2024-02-07
86,oranjemund,-28.55,16.4333,18.18,87,2,3.47,NA,1707347657,2024-02-07
87,nyagan,62.1406,65.3936,-2.5,91,100,4.33,RU,1707347658,2024-02-07
88,midvagur,62.0511,-7.1939,-0.54,86,40,6.69,FO,1707347658,2024-02-07
89,talnakh,69.4865,88.3972,-24.74,88,44,1.95,RU,1707347316,2024-02-07
90,vorgashor,67.5833,63.95,-8.68,88,100,4.82,RU,1707347309,2024-02-07
91,isafjordur,66.0755,-23.124,-7.09,74,4,2.5,IS,1707347293,2024-02-07
92,tomino,41.9877,-8.755,16.77,85,100,7.42,ES,1707347659,2024-02-07
93,ghanzi,-21.5667,21.7833,25.31,52,84,5.66,BW,1707347660,2024-02-07
94,thinadhoo,0.5333,72.9333,27.86,76,18,4.03,MV,1707347660,2024-02-07
95,laojunmiao,39.8333,97.7333,-9.27,59,51,0.77,CN,1707347466,2024-02-07
96,puerto natales,-51.7236,-72.4875,8.25,90,90,6.4,CL,1707347294,2024-02-07
97,naze,28.3667,129.4833,11.51,79,100,3.91,JP,1707347661,2024-02-07
98,tiksi,71.6872,128.8694,-21.13,99,100,2.16,RU,1707347332,2024-02-07
99,misratah,32.3754,15.0925,16.41,59,20,2.71,LY,1707347662,2024-02-07
100,carnarvon,-24.8667,113.6333,26.84,56,0,1.69,AU,1707347377,2024-02-07
101,hobyo,5.3505,48.5268,26.02,82,38,7.73,SO,1707347662,2024-02-07
102,geraldton,-28.7667,114.6,28.23,15,0,8.75,AU,1707347312,2024-02-07
103,bich'vinta,43.1592,40.3378,7.1,69,42,4.07,GE,1707347663,2024-02-07
104,saudarkrokur,65.7461,-19.6394,-11.74,90,83,3.11,IS,1707347663,2024-02-07
105,newman,37.3138,-121.0208,9.19,89,99,0.89,US,1707347663,2024-02-07
106,farah,32.5,62.5,7.61,24,0,1.57,AF,1707347664,2024-02-07
107,smithers,54.7804,-127.1743,0.33,70,78,1.24,CA,1707347415,2024-02-07
108,okha,53.5739,142.9478,-22.25,99,98,3.25,RU,1707347433,2024-02-07
109,pajok,3.8651,32.4821,24.87,41,36,1.16,SS,1707347665,2024-02-07
110,lompoc,34.6391,-120.4579,13.9,63,100,3.13,US,1707347360,2024-02-07
111,chibougamau,49.9168,-74.3659,-1.21,86,100,1.54,CA,1707347055,2024-02-07
112,hassi messaoud,31.6804,6.0729,8.92,43,0,0.51,DZ,1707347666,2024-02-07
113,kodiak,57.79,-152.4072,1.73,87,100,2.57,US,1707347348,2024-02-07
114,kapuskasing,49.4169,-82.4331,0.22,99,100,1.33,CA,1707347410,2024-02-07
115,oregon,44.0001,-120.5014,2.56,56,100,3.11,US,1707347486,2024-02-07
116,klyuchi,52.2667,79.1667,-2.64,94,100,4.08,RU,1707347359,2024-02-07
117,minuwangoda,7.1663,79.9533,21.96,94,0,2.57,LK,1707347667,2024-02-07
118,karabuk,41.2049,32.6277,9.21,69,100,0.72,TR,1707347667,2024-02-07
119,port mathurin,-19.6833,63.4167,26.35,80,66,7.36,MU,1707347334,2024-02-07
120,ofunato,39.0717,141.7167,1.24,66,6,2.9,JP,1707347668,2024-02-07
121,marica,-22.9194,-42.8186,27.95,89,100,2.64,BR,1707347668,2024-02-07
122,paradip garh,20.3167,86.6167,21.18,92,21,2.38,IN,1707347669,2024-02-07
123,acapulco de juarez,16.8634,-99.8901,28.9,65,0,3.6,MX,1707347443,2024-02-07
124,lorengau,-2.0226,147.2712,28.29,76,100,9.52,PG,1707347669,2024-02-07
125,jiangyou,31.7667,104.7167,3.72,84,86,1.09,CN,1707347670,2024-02-07
126,keflavik,64.0049,-22.5624,-3.76,74,0,5.14,IS,1707347670,2024-02-07
127,novyy urengoy,66.0833,76.6333,-3.66,95,100,6.22,RU,1707347671,2024-02-07
128,ilulissat,69.2167,-51.1,-8.99,86,100,8.75,GL,1707347297,2024-02-07
129,la ronge,55.1001,-105.2842,-7.86,86,100,3.09,CA,1707347671,2024-02-07
130,pokhara,28.2333,83.9833,10.58,32,14,2.82,NP,1707347471,2024-02-07
131,tsiombe,-25.3,45.4833,21.44,88,9,1.89,MG,1707347672,2024-02-07
132,chapaev,50.2,51.1667,-1.04,97,93,8.59,KZ,1707347672,2024-02-07
133,ancud,-41.8697,-73.8203,14.82,63,73,5.06,CL,1707347453,2024-02-07
134,bredasdorp,-34.5322,20.0403,18.54,78,5,3.99,ZA,1707347395,2024-02-07
135,ujae,8.9322,165.7642,27.11,76,31,9.94,MH,1707347673,2024-02-07
136,kavieng,-2.5744,150.7967,26.93,87,100,10.19,PG,1707347295,2024-02-07
137,lospalos,-8.5186,127.0025,22.82,93,92,1.2,TL,1707347384,2024-02-07
138,hammerfest,70.6634,23.6821,-10.75,67,0,3.09,NO,1707347321,2024-02-07
139,katsuren-haebaru,26.3369,127.8719,18.43,86,100,3.6,JP,1707347674,2024-02-07
140,tura,25.5198,90.2201,10.59,42,0,1.51,IN,1707347354,2024-02-07
141,jiaojiang,28.6803,121.4428,3.89,87,100,3.61,CN,1707347675,2024-02-07
142,shahdadpur,25.9241,68.62,16.18,40,91,2.9,PK,1707347675,2024-02-07
143,nguigmi,14.2495,13.1092,19.02,23,84,5.59,NE,1707347675,2024-02-07
144,fale old settlement,-9.3852,-171.2468,28.55,80,100,8.94,TK,1707347296,2024-02-07
145,road town,18.4167,-64.6167,24.05,88,75,0.0,VG,1707347378,2024-02-07
146,north bend,43.4065,-124.2243,8.98,87,100,3.6,US,1707347110,2024-02-07
147,chitipa,-9.7024,33.2697,16.96,97,61,1.24,MW,1707347677,2024-02-07
148,ewo,-0.8725,14.8206,26.66,54,76,2.23,CG,1707347677,2024-02-07
149,colonia,50.9333,6.95,4.97,92,75,1.03,DE,1707347228,2024-02-07
150,batouri,4.4333,14.3667,23.56,30,42,1.35,CM,1707347678,2024-02-07
151,st. john's,47.5649,-52.7093,-1.23,88,24,10.28,CA,1707347459,2024-02-07
152,east london,-33.0153,27.9116,20.35,61,0,3.64,ZA,1707347317,2024-02-07
153,gamba,-2.65,10.0,24.36,88,100,1.73,GA,1707347678,2024-02-07
154,namtsy,62.7161,129.6658,-40.61,100,98,1.35,RU,1707347679,2024-02-07
155,ivdel',60.6911,60.4206,-8.23,95,100,4.02,RU,1707347311,2024-02-07
156,srivardhan,18.0333,73.0167,23.02,65,9,3.13,IN,1707347679,2024-02-07
157,zorgo,12.2489,-0.6158,24.44,13,42,4.79,BF,1707347680,2024-02-07
158,olyokminsk,60.3736,120.4264,-31.63,100,99,0.52,RU,1707347531,2024-02-07
159,tera,14.0078,0.7531,22.05,14,4,4.53,NE,1707347680,2024-02-07
160,vadso,70.0744,29.7487,-14.91,85,75,3.6,NO,1707347681,2024-02-07
161,segou,13.4317,-6.2157,25.81,11,26,4.36,ML,1707347681,2024-02-07
162,afaahiti,-17.75,-149.2833,28.93,89,100,15.11,PF,1707347391,2024-02-07
163,georgetown,5.4112,100.3354,25.96,93,20,1.54,MY,1707347012,2024-02-07
164,manadhoo,5.7667,73.3833,27.18,71,86,4.45,MV,1707347682,2024-02-07
165,nemuro,43.3236,145.575,-5.52,67,71,1.31,JP,1707347401,2024-02-07
166,chiang saen,20.2751,100.0869,16.56,67,0,0.71,TH,1707347683,2024-02-07
167,el calafate,-50.3408,-72.2768,10.94,62,23,8.7,AR,1707347683,2024-02-07
168,shatsk,54.0258,41.7119,-1.86,93,100,8.14,RU,1707347683,2024-02-07
169,sitka,57.0531,-135.33,2.94,75,0,1.54,US,1707347343,2024-02-07
170,longyearbyen,78.2186,15.6401,-7.09,68,40,8.23,SJ,1707347152,2024-02-07
171,basco,20.4487,121.9702,23.2,81,50,9.59,PH,1707347684,2024-02-07
172,valdivia,-39.8142,-73.2459,18.05,61,100,1.06,CL,1707347685,2024-02-07
173,antofagasta,-23.65,-70.4,24.6,76,3,2.83,CL,1707347685,2024-02-07
174,mponela,-13.5319,33.7401,19.44,92,95,0.41,MW,1707347685,2024-02-07
175,egersund,58.4513,5.9997,-1.06,78,89,1.1,NO,1707347456,2024-02-07
176,canton,23.1167,113.25,9.37,70,100,4.81,CN,1707347626,2024-02-07
177,valparaiso,-33.0393,-71.6273,28.97,77,100,5.14,CL,1707347516,2024-02-07
178,iskateley,67.6803,53.1512,-20.55,98,100,4.47,RU,1707347686,2024-02-07
179,yantongshan,43.2919,126.0094,-21.51,100,36,2.04,CN,1707347687,2024-02-07
180,rongelap,11.1635,166.8941,26.54,77,85,10.4,MH,1707347357,2024-02-07
181,tambopata,-12.7333,-69.1833,29.94,74,40,2.06,PE,1707347687,2024-02-07
182,bonthe,7.5264,-12.505,25.97,88,5,2.98,SL,1707347300,2024-02-07
183,mount gambier,-37.8333,140.7667,17.33,58,32,2.86,AU,1707347688,2024-02-07
184,antsiranana,-12.2787,49.2917,25.38,88,96,2.08,MG,1707347465,2024-02-07
185,afikpo,5.8931,7.9374,25.39,28,47,1.11,NG,1707347688,2024-02-07
186,nyurba,63.2842,118.3319,-37.95,100,99,1.48,RU,1707347689,2024-02-07
187,dongsheng,39.8161,109.9776,-14.14,88,93,1.18,CN,1707347689,2024-02-07
188,luderitz,-26.6481,15.1594,18.54,75,32,5.87,NA,1707347690,2024-02-07
189,caleta de carquin,-11.0925,-77.6267,25.34,79,16,3.14,PE,1707347690,2024-02-07
190,kavaratti,10.5669,72.642,28.02,73,80,3.67,IN,1707347331,2024-02-07
191,la jolla,32.8473,-117.2742,15.58,77,100,6.69,US,1707347472,2024-02-07
192,porto velho,-8.7619,-63.9039,27.03,89,40,0.51,BR,1707347691,2024-02-07
193,cabo san lucas,22.8909,-109.9124,25.34,49,20,6.69,MX,1707347169,2024-02-07
194,loango,-4.6719,11.8312,27.81,89,40,0.0,CG,1707347692,2024-02-07
195,susuman,62.7833,148.1667,-33.34,100,98,0.89,RU,1707347398,2024-02-07
196,lihue,21.9789,-159.3672,26.58,67,75,7.72,US,1707347308,2024-02-07
197,old orchard beach,43.5173,-70.3775,2.06,74,40,0.0,US,1707347692,2024-02-07
198,moab,38.5733,-109.5498,9.23,39,67,0.45,US,1707347191,2024-02-07
199,touros,-5.1989,-35.4608,27.44,79,87,5.42,BR,1707347274,2024-02-07
200,corpus christi,27.8006,-97.3964,22.13,75,75,11.83,US,1707347516,2024-02-07
201,aioun,16.6614,-9.6149,23.32,8,20,5.22,MR,1707347695,2024-02-07
202,new plymouth,-39.0667,174.0833,24.34,69,27,3.44,NZ,1707347476,2024-02-07
203,guixi,28.2886,117.2133,2.15,100,100,0.76,CN,1707347348,2024-02-07
204,anadyr,64.75,177.4833,-17.72,85,75,8.0,RU,1707347330,2024-02-07
205,amla,21.9333,78.1167,14.79,56,67,2.66,IN,1707347696,2024-02-07
206,enewetak,11.3474,162.3373,26.69,80,100,8.66,MH,1707347307,2024-02-07
207,zhaotong,27.3167,103.7167,-1.29,85,100,3.02,CN,1707347697,2024-02-07
208,celestun,20.8667,-90.4,22.64,62,0,4.51,MX,1707347460,2024-02-07
209,baker city,44.7749,-117.8344,2.84,85,100,4.12,US,1707347634,2024-02-07
210,torbali,38.1519,27.3622,12.57,90,96,2.29,TR,1707347698,2024-02-07
211,poso,-1.3959,120.7524,25.67,84,100,1.74,ID,1707347698,2024-02-07
212,bikenibeu village,1.3673,173.1241,28.7,79,89,9.47,KI,1707347451,2024-02-07
213,broome,42.2506,-75.833,4.0,69,77,0.2,US,1707347315,2024-02-07
214,narvik,68.4384,17.4272,-11.33,95,100,3.44,NO,1707347699,2024-02-07
215,jinchang,38.4953,102.1739,-8.08,59,14,2.07,CN,1707347699,2024-02-07
216,hpa-an,16.8906,97.6333,18.88,76,2,1.0,MM,1707347700,2024-02-07
217,guadalupe y calvo,26.1,-106.9667,9.44,57,19,6.4,MX,1707347700,2024-02-07
218,opuwo,-18.0607,13.84,21.75,70,87,1.65,NA,1707347700,2024-02-07
219,wabag,-5.4781,143.7021,16.26,87,100,0.63,PG,1707347701,2024-02-07
220,rovaniemi,66.5,25.7167,-20.33,84,100,3.6,FI,1707347701,2024-02-07
221,remire-montjoly,4.9167,-52.2667,28.02,78,75,3.6,GF,1707347702,2024-02-07
222,loreto,22.2667,-101.9667,25.06,8,18,7.15,MX,1707347702,2024-02-07
223,puerto armuelles,8.2833,-82.8667,27.83,64,16,3.13,PA,1707347520,2024-02-07
224,kailua-kona,19.6406,-155.9956,25.98,70,40,3.09,US,1707347629,2024-02-07
225,namsos,64.4662,11.4957,-0.97,79,100,3.09,NO,1707347703,2024-02-07
226,kushiro,42.975,144.3747,-7.33,79,76,1.09,JP,1707347497,2024-02-07
227,san ignacio de velasco,-16.3667,-60.95,26.62,65,100,1.88,BO,1707347704,2024-02-07
228,angra do heroismo,38.65,-27.2167,16.73,88,20,6.71,PT,1707347704,2024-02-07
229,kolonia,50.9333,6.95,4.97,92,75,1.03,DE,1707347705,2024-02-07
230,novodvinsk,64.4165,40.8122,-29.01,100,99,1.65,RU,1707347705,2024-02-07
231,odacho-oda,35.1833,132.5,3.43,85,89,2.5,JP,1707347705,2024-02-07
232,shizunai-furukawacho,42.3339,142.3669,-1.79,71,83,1.1,JP,1707347706,2024-02-07
233,paracuru,-3.41,-39.0306,28.95,82,67,4.87,BR,1707347548,2024-02-07
234,qaqortoq,60.7167,-46.0333,-8.04,76,100,2.0,GL,1707347146,2024-02-07
235,melfort,52.8667,-104.6177,-6.93,93,100,2.06,CA,1707347707,2024-02-07
236,san jose del guaviare,2.5729,-72.6459,29.57,60,69,0.61,CO,1707347707,2024-02-07
237,sao felix do xingu,-6.6447,-51.995,25.64,85,61,0.99,BR,1707347707,2024-02-07
238,laminusa,5.5549,120.9136,26.84,78,100,0.73,PH,1707347708,2024-02-07
239,puerto aysen,-45.4,-72.7,11.29,86,97,2.64,CL,1707347708,2024-02-07
240,corralillo,22.9819,-80.5856,20.18,75,54,5.22,CU,1707347709,2024-02-07
241,al ghayzah,16.2079,52.176,22.79,51,22,3.3,YE,1707347427,2024-02-07
242,hermanus,-34.4187,19.2345,18.78,83,45,4.51,ZA,1707347315,2024-02-07
243,timbuktu,16.7735,-3.0074,21.47,11,19,4.91,ML,1707347351,2024-02-07
244,jining,35.405,116.5814,-2.06,70,87,0.62,CN,1707347710,2024-02-07
245,thompson,55.7435,-97.8558,-14.91,85,100,2.06,CA,1707347306,2024-02-07
246,cestos city,5.46,-9.5828,26.88,88,5,2.95,LR,1707347710,2024-02-07
247,yaren,-0.5472,166.916,29.26,77,83,7.37,NR,1707347711,2024-02-07
248,alo,7.4178,6.7371,27.32,19,34,1.18,NG,1707347711,2024-02-07
249,zuidhorn,53.2467,6.4028,2.19,90,100,0.51,NL,1707347712,2024-02-07
250,humaita,-7.5061,-63.0208,25.1,95,94,1.4,BR,1707347712,2024-02-07
251,berdigestyakh,62.0989,126.6992,-35.85,99,95,1.3,RU,1707347438,2024-02-07
252,nuku'alofa,-21.1333,-175.2,30.19,79,20,4.12,TO,1707347713,2024-02-07
253,prince rupert,54.3161,-130.3201,2.79,66,99,1.69,CA,1707347496,2024-02-07
254,ust-nera,64.5667,143.2,-29.71,100,100,0.98,RU,1707347325,2024-02-07
255,lulea,65.5842,22.1547,-12.96,85,100,3.6,SE,1707347714,2024-02-07
256,bakal,54.9417,58.8083,-18.03,100,77,1.74,RU,1707347714,2024-02-07
257,bridgetown,13.1,-59.6167,27.27,83,40,7.2,BB,1707347715,2024-02-07
258,paidha,2.4167,30.9855,22.34,36,86,1.57,UG,1707347529,2024-02-07
259,greenville,35.6127,-77.3663,9.02,55,0,2.06,US,1707347561,2024-02-07
260,yorkton,51.2167,-102.4677,-4.09,93,100,6.69,CA,1707347716,2024-02-07
261,tarrafal de sao nicolau,16.5667,-24.3667,23.31,75,0,4.37,CV,1707347716,2024-02-07
262,meadow lakes,61.6247,-149.6011,0.66,66,0,0.0,US,1707347716,2024-02-07
263,ubinskoye,55.3068,79.6802,-2.91,96,100,5.75,RU,1707347717,2024-02-07
264,puerto deseado,-47.7503,-65.8938,13.87,57,23,6.77,AR,1707347717,2024-02-07
265,nouadhibou,20.931,-17.0347,23.99,23,15,6.17,MR,1707347717,2024-02-07
266,andergrove,-21.0833,149.1833,26.47,65,96,8.08,AU,1707347718,2024-02-07
267,bukittinggi,-0.3091,100.3706,18.29,98,92,0.33,ID,1707347718,2024-02-07
268,querqueville,49.6625,-1.6912,10.82,100,100,2.06,FR,1707347693,2024-02-07
269,puerto maldonado,-12.6,-69.1833,30.22,74,40,2.06,PE,1707347670,2024-02-07
270,margate,51.3813,1.3862,5.94,81,100,0.45,GB,1707347241,2024-02-07
271,hamilton,39.1834,-84.5333,12.47,43,0,2.57,US,1707347719,2024-02-07
272,mount isa,-20.7333,139.5,26.87,41,75,4.12,AU,1707347324,2024-02-07
273,prymors'k,46.7348,36.3443,6.15,84,8,8.77,UA,1707347720,2024-02-07
274,ponto novo,-10.8628,-40.1336,25.51,60,80,1.1,BR,1707347720,2024-02-07
275,hasaki,35.7333,140.8333,1.22,57,55,0.39,JP,1707347398,2024-02-07
276,skowhegan,44.7651,-69.7192,2.31,83,100,0.06,US,1707347721,2024-02-07
277,srandakan,-7.9386,110.2506,24.14,89,77,1.62,ID,1707347721,2024-02-07
278,ribeira grande,38.5167,-28.7,14.87,89,97,7.6,PT,1707347293,2024-02-07
279,udomlya,57.8794,34.9925,-17.98,97,100,2.46,RU,1707347722,2024-02-07
280,tamandare,-8.7597,-35.1047,27.19,81,42,4.7,BR,1707347440,2024-02-07
281,tongchuanshi,35.0806,109.0897,-3.34,75,41,1.6,CN,1707347723,2024-02-07
282,codrington,-38.2667,141.9667,17.33,58,63,3.57,AU,1707347328,2024-02-07
283,alofi,-19.0595,-169.9187,30.94,66,75,4.12,NU,1707347069,2024-02-07
284,taltal,-25.4,-70.4833,22.28,78,24,2.49,CL,1707347344,2024-02-07
285,nuuk,64.1835,-51.7216,-8.66,79,100,4.63,GL,1707347538,2024-02-07
286,bakchar,57.0186,82.0711,-5.87,84,100,4.0,RU,1707347725,2024-02-07
287,santa helena,-2.2311,-45.3,24.75,89,38,1.42,BR,1707347567,2024-02-07
288,rouyn-noranda,48.2398,-79.0288,0.56,94,100,3.2,CA,1707347524,2024-02-07
289,christchurch,-43.5333,172.6333,19.19,86,75,6.17,NZ,1707347707,2024-02-07
290,kazaure,12.6513,8.4162,18.57,18,75,3.96,NG,1707347726,2024-02-07
291,guercif,34.2257,-3.3536,13.62,37,17,1.11,MA,1707347726,2024-02-07
292,ketchikan,55.3422,-131.6461,3.26,60,75,2.57,US,1707347727,2024-02-07
293,san antonio de pale,-1.4014,5.6325,28.06,76,26,1.62,GQ,1707347370,2024-02-07
294,masterton,-40.9597,175.6575,23.39,50,99,3.44,NZ,1707347727,2024-02-07
295,ingeniero guillermo n. juarez,-23.9,-61.85,33.25,41,91,6.69,AR,1707347728,2024-02-07
296,aasiaat,68.7098,-52.8699,-16.87,88,95,12.1,GL,1707347317,2024-02-07
297,pemba,-12.974,40.5178,27.39,100,40,4.12,MZ,1707347729,2024-02-07
298,nanao,37.05,136.9667,3.48,94,96,2.15,JP,1707347729,2024-02-07
299,hithadhoo,-0.6,73.0833,27.77,74,23,3.26,MV,1707347380,2024-02-07
300,kone,-21.0595,164.8658,24.71,92,100,2.43,NC,1707347474,2024-02-07
301,prado,-17.3411,-39.2208,26.33,84,57,3.76,BR,1707347478,2024-02-07
302,popilnia,49.9665,29.4435,2.59,87,100,6.74,UA,1707347731,2024-02-07
303,kidal,18.4411,1.4078,18.55,11,0,4.56,ML,1707347731,2024-02-07
304,sarina,-21.4333,149.2167,28.67,1,91,6.58,AU,1707347732,2024-02-07
305,taroa,8.7058,171.2275,27.29,79,100,9.9,MH,1707347733,2024-02-07
306,vernon,50.2581,-119.2691,4.4,88,100,1.03,CA,1707347733,2024-02-07
307,pacific grove,36.6177,-121.9166,10.79,88,100,3.6,US,1707347343,2024-02-07
308,tres arroyos,-38.3739,-60.2798,22.55,88,95,2.48,AR,1707347734,2024-02-07
309,severo-yeniseyskiy,60.3725,93.0408,-12.46,99,89,1.34,RU,1707347735,2024-02-07
310,nayudupet,13.9,79.9,20.2,80,6,3.2,IN,1707347736,2024-02-07
311,priob'ye,62.5206,65.5964,-2.21,87,100,6.0,RU,1707347477,2024-02-07
312,al mawsil al jadidah,36.3346,43.0978,10.44,77,62,2.38,IQ,1707347737,2024-02-07
313,uturoa,-16.7333,-151.4333,28.15,87,47,14.13,PF,1707347370,2024-02-07
314,chinchilla,-26.75,150.6333,26.68,70,55,3.58,AU,1707347738,2024-02-07
315,xining,36.6167,101.7667,-10.99,92,94,1.36,CN,1707347738,2024-02-07
316,badiyah,22.45,58.8,18.95,54,100,2.04,OM,1707347739,2024-02-07
317,arauco,-37.2463,-73.3175,17.61,51,89,6.63,CL,1707347740,2024-02-07
318,labrador city,52.9463,-66.9114,-7.68,92,100,0.49,CA,1707347371,2024-02-07
319,islamkot,24.6997,70.177,17.99,35,100,5.06,PK,1707347742,2024-02-07
320,pacocha,-17.5833,-71.3333,25.13,77,14,2.05,PE,1707347544,2024-02-07
321,dunedin,-45.8742,170.5036,18.78,50,6,1.34,NZ,1707347389,2024-02-07
322,calgary,51.0501,-114.0853,-6.03,81,100,2.29,CA,1707347329,2024-02-07
323,saipan,15.1355,145.701,27.39,65,75,4.63,MP,1707347346,2024-02-07
324,coruripe,-10.1256,-36.1756,27.12,79,24,5.9,BR,1707347743,2024-02-07
325,al burayqah,30.4062,19.5739,16.48,43,94,4.04,LY,1707347744,2024-02-07
326,nelson bay,-32.7167,152.15,23.39,75,100,6.71,AU,1707347313,2024-02-07
327,fort bragg,35.139,-79.006,10.08,43,0,2.06,US,1707347270,2024-02-07
328,wanning,18.8003,110.3967,22.51,90,99,1.1,CN,1707347745,2024-02-07
329,fuxin,42.0156,121.6589,-13.17,84,4,1.48,CN,1707347745,2024-02-07
330,lata,40.1629,-8.3327,16.01,91,100,2.99,PT,1707347745,2024-02-07
331,cromer,52.9312,1.2989,2.0,79,99,0.35,GB,1707347746,2024-02-07
332,diego de almagro,-26.3667,-70.05,24.81,39,0,4.42,CL,1707347746,2024-02-07
333,pisco,-13.7,-76.2167,26.03,78,0,7.72,PE,1707347746,2024-02-07
334,peterhead,57.5058,-1.7981,-0.86,70,17,7.53,GB,1707347442,2024-02-07
335,dwarka,22.2394,68.9678,22.2,54,100,4.72,IN,1707347346,2024-02-07
336,santa marinella,42.0345,11.8536,12.95,93,27,2.49,IT,1707347571,2024-02-07
337,mandalgovi,45.7625,106.2708,-21.43,94,44,2.3,MN,1707347748,2024-02-07
338,meizhou,24.2977,116.1072,7.57,92,98,1.47,CN,1707347748,2024-02-07
339,port douglas,-16.4833,145.4667,28.04,74,30,2.0,AU,1707347748,2024-02-07
340,ouahigouya,13.5828,-2.4216,22.57,12,19,4.71,BF,1707347749,2024-02-07
341,quellon,-43.1167,-73.6167,13.4,72,97,2.32,CL,1707347409,2024-02-07
342,tralee,52.2704,-9.7026,5.41,88,100,7.0,IE,1707347349,2024-02-07
343,ciudad lazaro cardenas,17.9583,-102.2,27.64,63,3,4.9,MX,1707347323,2024-02-07
344,ampara,7.2833,81.6667,23.45,77,81,1.48,LK,1707347750,2024-02-07
345,ebon,4.582,168.6964,28.25,77,60,10.29,MH,1707347501,2024-02-07
346,tamanrasset,22.785,5.5228,9.95,20,0,3.09,DZ,1707347751,2024-02-07
347,athens,37.9795,23.7162,15.06,73,100,3.13,GR,1707347751,2024-02-07
348,melilla,35.2937,-2.9383,17.21,39,0,2.06,ES,1707347751,2024-02-07
349,virginia,37.5481,-77.4467,8.08,52,20,2.06,US,1707347752,2024-02-07
350,mahina,-17.5065,-149.489,29.87,84,75,7.72,PF,1707347752,2024-02-07
351,morehead city,34.7229,-76.726,8.34,76,0,4.47,US,1707347589,2024-02-07
352,faya-largeau,17.9257,19.1043,16.45,27,70,5.78,TD,1707347334,2024-02-07
353,horta,38.5333,-28.6333,14.45,89,96,7.6,PT,1707347462,2024-02-07
354,howard springs,-12.497,131.047,26.95,95,100,0.96,AU,1707347321,2024-02-07
355,phan rang-thap cham,11.5667,108.9833,21.42,89,97,1.67,VN,1707347754,2024-02-07
356,weno,7.4515,151.8468,28.97,74,100,5.14,FM,1707347754,2024-02-07
357,burutu,5.3509,5.5076,25.74,77,14,2.32,NG,1707347754,2024-02-07
358,auchi,7.0667,6.2667,25.72,22,40,0.62,NG,1707347755,2024-02-07
359,portland,45.5234,-122.6762,11.92,73,20,3.09,US,1707347360,2024-02-07
360,yuzhno-kurilsk,44.0306,145.8556,-8.68,86,51,2.1,RU,1707347432,2024-02-07
361,harper,4.375,-7.7169,26.8,86,19,3.15,LR,1707347517,2024-02-07
362,genhe,50.7833,121.5167,-30.86,100,100,0.68,CN,1707347756,2024-02-07
363,selfoss,63.9331,-20.9971,-10.38,82,4,4.54,IS,1707347756,2024-02-07
364,la'ie,21.6477,-157.9253,27.98,67,19,2.68,US,1707347486,2024-02-07
365,tucurui,-3.7661,-49.6725,24.8,93,90,1.29,BR,1707347757,2024-02-07
366,namibe,-15.1961,12.1522,25.37,78,80,4.5,AO,1707347757,2024-02-07
367,yung shue wan,22.2333,114.1167,14.62,88,100,0.89,HK,1707347757,2024-02-07
368,salekhard,66.53,66.6019,-3.75,94,100,5.28,RU,1707347758,2024-02-07
369,mirny,62.5353,113.9611,-36.55,100,27,1.32,RU,1707347472,2024-02-07
370,besskorbnaya,44.6447,41.311,8.66,52,40,5.88,RU,1707347758,2024-02-07
371,sungai penuh,-2.0833,101.3833,17.71,96,97,0.8,ID,1707347759,2024-02-07
372,awjilah,29.1081,21.2869,14.29,36,21,2.04,LY,1707347759,2024-02-07
373,beaufort west,-32.3567,22.583,20.29,51,0,3.21,ZA,1707347759,2024-02-07
374,choyr,46.3611,108.3611,-25.13,98,41,1.37,MN,1707347760,2024-02-07
375,muromtsevo,56.3724,75.2418,-3.27,92,100,4.09,RU,1707347760,2024-02-07
376,vieste,41.8825,16.175,12.95,70,51,2.69,IT,1707347760,2024-02-07
377,altpinar,39.2042,32.7478,6.12,79,87,3.2,TR,1707347761,2024-02-07
378,nova vicosa,-17.8919,-39.3719,26.33,85,86,4.02,BR,1707347520,2024-02-07
379,port saint john's,-31.6229,29.5448,21.71,79,78,3.49,ZA,1707347761,2024-02-07
380,nagqu,31.5,92.0,-13.88,44,0,2.09,CN,1707347762,2024-02-07
381,kralendijk,12.15,-68.2667,27.99,74,99,3.6,BQ,1707347717,2024-02-07
382,rawa mazowiecka,51.7644,20.2549,1.63,80,88,4.44,PL,1707347762,2024-02-07
383,alice springs,-23.7,133.8833,26.23,22,56,5.14,AU,1707347368,2024-02-07
384,fisterra,42.9049,-9.2629,17.08,88,100,15.66,ES,1707347763,2024-02-07
385,porcuna,37.871,-4.185,11.75,83,58,1.27,ES,1707347763,2024-02-07
386,broken hill,-31.95,141.4333,22.37,31,0,8.26,AU,1707347763,2024-02-07
387,kenai,60.5544,-151.2583,-2.14,94,0,3.09,US,1707347762,2024-02-07
388,cidreira,-30.1811,-50.2056,23.66,85,94,6.45,BR,1707347435,2024-02-07
389,mil'kovo,55.6078,37.7956,-9.21,94,100,5.8,RU,1707347458,2024-02-07
390,corner brook,48.9667,-57.9484,-4.91,99,35,0.74,CA,1707347765,2024-02-07
391,egilsstadir,65.2653,-14.3948,-5.05,68,75,4.12,IS,1707347765,2024-02-07
392,dongola,19.1667,30.4833,15.56,24,23,4.44,SD,1707347418,2024-02-07
393,tindouf,27.6711,-8.1474,15.25,23,0,1.54,DZ,1707347766,2024-02-07
394,asekeyevo,53.5742,52.7972,-11.35,91,100,2.79,RU,1707347766,2024-02-07
395,wotho,10.1657,166.0102,26.81,79,80,9.84,MH,1707347766,2024-02-07
396,coquimbo,-29.9533,-71.3436,19.94,83,20,2.56,CL,1707347597,2024-02-07
397,port isabel,26.0734,-97.2086,24.04,64,0,10.8,US,1707347767,2024-02-07
398,dalandzadgad,43.5708,104.425,-15.35,76,3,1.2,MN,1707347767,2024-02-07
399,quirinopolis,-18.4483,-50.4517,23.32,78,94,0.9,BR,1707347768,2024-02-07
400,maracaju,-21.6144,-55.1683,21.2,96,100,1.96,BR,1707347769,2024-02-07
401,caconda,-13.7333,15.0667,15.75,89,100,0.87,AO,1707347769,2024-02-07
402,hermansverk,61.1846,6.8502,-5.75,86,100,1.54,NO,1707347769,2024-02-07
403,guerrero negro,27.9769,-114.0611,17.3,50,4,8.18,MX,1707347361,2024-02-07
404,cannonvale,-20.2833,148.7,29.66,62,100,7.5,AU,1707347770,2024-02-07
405,korsakov,46.6328,142.7813,-15.09,94,100,2.59,RU,1707347767,2024-02-07
406,bamboo flat,11.7,92.7167,23.05,94,32,1.03,IN,1707347771,2024-02-07
407,saynshand,44.8824,110.1163,-22.48,100,83,1.29,MN,1707347379,2024-02-07
408,dolores,-36.3132,-57.6792,27.72,62,99,1.09,AR,1707347771,2024-02-07
409,wakkanai,45.4094,141.6739,-2.36,74,100,4.36,JP,1707347772,2024-02-07
410,acajutla,13.5928,-89.8275,28.53,41,3,2.38,SV,1707347772,2024-02-07
411,koani,-6.1333,39.2833,25.77,88,42,2.63,TZ,1707347772,2024-02-07
412,jagdalpur,19.0667,82.0333,17.67,65,6,0.72,IN,1707347773,2024-02-07
413,caucete,-31.6518,-68.2811,38.21,22,11,1.91,AR,1707347773,2024-02-07
414,walvis bay,-22.9575,14.5053,20.19,75,100,6.62,NA,1707347473,2024-02-07
415,mantua,45.1667,10.7833,9.58,66,98,0.89,IT,1707347704,2024-02-07
416,juneau,58.3019,-134.4197,-1.44,95,40,0.0,US,1707347774,2024-02-07
417,ciudad acuna,29.3232,-100.9522,22.32,49,0,7.72,MX,1707347775,2024-02-07
418,ebermannstadt,49.7822,11.1811,7.36,94,100,4.46,DE,1707347775,2024-02-07
419,rabaul,-4.1967,152.1721,27.38,85,100,9.78,PG,1707347396,2024-02-07
420,kargasok,59.0556,80.8572,-6.69,97,100,3.13,RU,1707347776,2024-02-07
421,kamen'-na-obi,53.7884,81.3423,-2.9,96,98,5.91,RU,1707347776,2024-02-07
422,saint-joseph,-21.3667,55.6167,24.21,85,94,3.96,RE,1707347350,2024-02-07
423,victoria,22.2855,114.1577,14.97,89,100,1.79,HK,1707347608,2024-02-07
424,registro,-24.4875,-47.8436,23.86,90,45,1.34,BR,1707347777,2024-02-07
425,sinazongwe,-17.2614,27.4618,25.51,67,98,1.4,ZM,1707347778,2024-02-07
426,taoyuan city,24.9937,121.297,13.62,98,75,7.2,TW,1707347778,2024-02-07
427,plastun,44.7561,136.2939,-12.14,76,11,3.94,RU,1707347778,2024-02-07
428,skiathos,39.1623,23.4909,15.54,68,100,3.59,GR,1707347779,2024-02-07
429,exu,-7.5119,-39.7242,28.76,42,100,1.04,BR,1707347779,2024-02-07
430,tianchang,37.9981,114.0156,-0.51,58,100,1.56,CN,1707347779,2024-02-07
431,hazaribagh,23.9833,85.35,12.15,35,29,5.01,IN,1707347780,2024-02-07
432,johvi,59.3592,27.4211,-9.91,87,100,2.14,EE,1707347780,2024-02-07
433,haiku-pauwela,20.9219,-156.3051,26.25,64,0,10.29,US,1707347412,2024-02-07
434,saint-denis,48.9167,2.3333,12.88,97,100,4.12,FR,1707347664,2024-02-07
435,vilyuysk,63.7553,121.6247,-40.0,100,92,1.34,RU,1707347366,2024-02-07
436,madalena,41.2162,-8.3345,15.32,90,99,3.57,PT,1707347657,2024-02-07
437,natal,-5.795,-35.2094,28.12,83,20,3.09,BR,1707347782,2024-02-07
438,sao joao do piaui,-8.3581,-42.2467,29.38,52,100,0.52,BR,1707347782,2024-02-07
439,chubbuck,42.9208,-112.4661,3.97,74,40,11.32,US,1707347782,2024-02-07
440,miri,4.4148,114.0089,24.08,100,20,1.03,MY,1707347783,2024-02-07
441,bodaybo,57.8506,114.1933,-16.39,99,100,1.2,RU,1707347783,2024-02-07
442,karratha,-20.7377,116.8463,30.06,43,10,3.99,AU,1707347388,2024-02-07
443,bichura,50.5881,107.6022,-21.11,98,93,0.86,RU,1707347783,2024-02-07
444,vicuna mackenna,-33.9197,-64.3922,36.28,25,43,1.72,AR,1707347784,2024-02-07
445,estevan,49.1334,-102.9842,-0.81,93,100,7.2,CA,1707347784,2024-02-07
446,praia da vitoria,38.7333,-27.0667,16.53,89,100,10.06,PT,1707347353,2024-02-07
447,maraba,-5.3686,-49.1178,27.1,89,75,1.03,BR,1707347696,2024-02-07
448,mohr,54.3528,9.7167,1.59,87,98,5.66,DE,1707347785,2024-02-07
449,san fernando de apure,7.8878,-67.4724,29.12,68,92,2.18,VE,1707347785,2024-02-07
450,sysert',56.4953,60.8192,-8.01,98,99,1.36,RU,1707347786,2024-02-07
451,kirensk,57.7853,108.1119,-8.35,97,100,0.45,RU,1707347470,2024-02-07
452,khandyga,62.6667,135.6,-46.15,100,76,0.82,RU,1707347330,2024-02-07
453,olinda,-8.0089,-34.8553,28.85,74,20,3.6,BR,1707347786,2024-02-07
454,island harbour,50.724,-1.2758,6.79,95,100,1.34,GB,1707347381,2024-02-07
455,vega de alatorre,20.0333,-96.6333,22.79,70,4,6.9,MX,1707347787,2024-02-07
456,mezobereny,46.8167,21.0333,7.23,72,82,4.82,HU,1707347787,2024-02-07
457,wynyard,-41.0,145.7167,16.77,71,67,3.86,AU,1707347426,2024-02-07
458,hirtshals,57.5881,9.9592,0.12,95,100,4.03,DK,1707347788,2024-02-07
459,ceerigaabo,10.6162,47.368,14.9,71,73,0.5,SO,1707347788,2024-02-07
460,brak,27.5496,14.2714,12.49,39,0,1.51,LY,1707347789,2024-02-07
461,ganganagar,29.9167,73.8833,8.22,53,0,2.91,IN,1707347789,2024-02-07
462,mariental,-24.6333,17.9667,26.39,38,98,3.13,NA,1707347790,2024-02-07
463,chonchi,-42.6128,-73.8092,16.56,62,83,1.01,CL,1707347386,2024-02-07
464,ar ruways,24.1103,52.7306,17.55,56,0,5.51,AE,1707347790,2024-02-07
465,san andres,12.5847,-81.7006,27.01,69,20,4.63,CO,1707347791,2024-02-07
466,kish,26.5578,54.0194,19.15,63,0,4.12,IR,1707347791,2024-02-07
467,sinabang,2.4803,96.3801,26.61,80,98,0.6,ID,1707347552,2024-02-07
468,chinde,26.8418,88.0763,5.29,73,11,1.78,NP,1707347441,2024-02-07
469,sept-iles,50.2001,-66.3821,-7.19,78,45,1.52,CA,1707347429,2024-02-07
470,galle,6.0367,80.217,23.51,91,77,2.43,LK,1707347792,2024-02-07
471,noumea,-22.2763,166.4572,28.89,99,100,6.69,NC,1707347742,2024-02-07
472,al qusiyah,27.4402,30.8184,14.05,45,0,3.71,EG,1707347793,2024-02-07
473,inongo,-1.95,18.2667,24.29,80,72,1.78,CD,1707347793,2024-02-07
474,callao,-12.0667,-77.15,27.16,65,0,5.66,PE,1707347794,2024-02-07
475,sorong,-0.8833,131.25,27.84,77,100,3.3,ID,1707347794,2024-02-07
476,happy valley-goose bay,53.3168,-60.3315,-9.83,62,75,1.03,CA,1707347794,2024-02-07
477,west end,26.6833,-78.9667,18.99,67,33,8.78,BS,1707347795,2024-02-07
478,mandawar,29.5,78.1333,8.17,63,0,4.83,IN,1707347795,2024-02-07
479,anton lizardo,19.05,-95.9833,24.12,61,1,5.3,MX,1707347795,2024-02-07
480,haimen,23.1935,116.6142,9.94,86,100,6.06,CN,1707347796,2024-02-07
481,kempsey,-31.0833,152.8333,21.08,93,100,1.79,AU,1707347796,2024-02-07
482,mogadishu,2.0371,45.3438,26.69,84,39,8.81,SO,1707347468,2024-02-07
483,birao,10.2849,22.7882,20.39,21,50,2.74,CF,1707347796,2024-02-07
484,saldanha,-33.0117,17.9442,18.84,84,67,4.49,ZA,1707347314,2024-02-07
485,ulanhot,46.0833,122.0833,-17.31,81,2,2.32,CN,1707347797,2024-02-07
486,torghay,49.6339,63.4981,-4.87,89,100,12.94,KZ,1707347797,2024-02-07
487,constantia,44.1833,28.65,9.38,68,100,5.96,RO,1707347326,2024-02-07
488,kingston,17.997,-76.7936,22.87,66,0,2.68,JM,1707347235,2024-02-07
489,westerland,54.9079,8.3033,3.01,87,100,6.69,DE,1707347798,2024-02-07
490,gisborne,-38.6533,178.0042,26.04,54,18,2.02,NZ,1707347799,2024-02-07
491,enoch,37.7733,-113.0244,3.14,76,100,8.75,US,1707347799,2024-02-07
492,amahai,-3.3333,128.9167,26.13,81,100,2.33,ID,1707347799,2024-02-07
493,chernyshevskiy,63.0128,112.4714,-39.82,100,51,0.72,RU,1707347800,2024-02-07
494,markova,48.6758,24.4138,5.15,88,96,2.98,UA,1707347800,2024-02-07
495,san patricio,28.017,-97.5169,22.05,70,100,8.06,US,1707347378,2024-02-07
496,kroya,-7.6331,109.2461,24.54,88,86,1.38,ID,1707347801,2024-02-07
497,parapat,2.663,98.9349,19.0,94,92,0.91,ID,1707347801,2024-02-07
498,sao vicente,-23.9631,-46.3919,27.93,51,99,2.24,BR,1707347329,2024-02-07
499,iwanai,42.9744,140.5089,-1.08,70,99,4.95,JP,1707347802,2024-02-07
500,marka,1.7159,44.7717,26.55,85,16,7.81,SO,1707347802,2024-02-07
501,varel,53.3969,8.1362,0.95,81,99,2.99,DE,1707347802,2024-02-07
502,zinjibar,13.1287,45.3807,24.4,74,34,7.33,YE,1707347802,2024-02-07
503,catalao,-18.1658,-47.9464,21.35,87,99,1.09,BR,1707347803,2024-02-07
504,cuenca,-2.8833,-78.9833,15.51,86,95,1.04,EC,1707347391,2024-02-07
505,maragogi,-9.0122,-35.2225,27.27,81,34,5.0,BR,1707347763,2024-02-07
506,richards bay,-28.783,32.0377,24.03,86,97,6.15,ZA,1707347154,2024-02-07
507,carmo do rio claro,-20.9719,-46.1189,20.26,90,100,0.49,BR,1707347804,2024-02-07
508,puerto colombia,10.9878,-74.9547,24.05,73,33,6.8,CO,1707347805,2024-02-07
509,punaauia,-17.6333,-149.6,29.8,84,75,7.72,PF,1707347805,2024-02-07
510,gizo,-8.103,156.8419,28.49,81,100,7.76,SB,1707347805,2024-02-07
511,massakory,12.996,15.7293,20.94,16,65,5.65,TD,1707347806,2024-02-07
512,bonito,-21.1211,-56.4819,22.55,98,100,3.85,BR,1707347806,2024-02-07
513,badnawar,23.0167,75.2167,15.17,46,99,5.34,IN,1707347806,2024-02-07
514,rexburg,43.826,-111.7897,1.73,80,100,5.14,US,1707347651,2024-02-07
515,siasi,5.5462,120.8145,26.79,78,100,1.03,PH,1707347807,2024-02-07
516,qom,34.6401,50.8764,7.53,52,0,2.31,IR,1707347732,2024-02-07
517,lapinlahti,65.5833,30.5667,-30.95,100,91,0.74,RU,1707347807,2024-02-07
518,nagar,27.4333,77.1,8.84,54,1,3.51,IN,1707347808,2024-02-07
519,iwon-up,40.3231,128.6553,-3.85,62,5,2.59,KP,1707347808,2024-02-07
520,megalopoli,37.4011,22.1422,10.23,61,100,1.05,GR,1707347808,2024-02-07
521,alesund,62.4723,6.1549,-3.28,83,64,5.14,NO,1707347809,2024-02-07
522,soto la marina,23.7667,-98.2167,26.03,40,52,8.8,MX,1707347809,2024-02-07
523,sechura,-5.5569,-80.8222,29.73,58,61,7.91,PE,1707347809,2024-02-07
524,suva,-18.1416,178.4415,29.71,66,75,3.09,FJ,1707347810,2024-02-07
525,palikir - national government center,6.9248,158.1611,29.41,70,100,7.72,FM,1707347607,2024-02-07
526,kayangel,8.0823,134.7173,27.37,73,96,9.43,PW,1707347338,2024-02-07
527,pierre,44.3683,-100.351,6.51,87,100,3.09,US,1707347811,2024-02-07
528,shiraz,29.6036,52.5388,5.69,49,0,2.06,IR,1707347811,2024-02-07
529,aliveri,38.4167,24.0333,14.13,73,100,2.34,GR,1707347811,2024-02-07
530,taoudenni,22.6783,-3.9836,19.42,14,2,4.4,ML,1707347339,2024-02-07
531,shenjiamen,29.9576,122.298,3.97,70,98,7.46,CN,1707347812,2024-02-07
532,chuzhou,32.3219,118.2978,-0.07,82,100,1.47,CN,1707347627,2024-02-07
533,great bend,38.3645,-98.7648,13.12,65,20,11.32,US,1707347812,2024-02-07
534,telimele,10.9167,-13.3333,21.65,71,82,0.81,GN,1707347813,2024-02-07
535,aripuana,-9.1667,-60.6333,26.68,74,87,1.21,BR,1707347813,2024-02-07
536,banda aceh,5.5577,95.3222,25.29,87,15,2.88,ID,1707347813,2024-02-07
537,cockburn town,21.4612,-71.1419,23.85,70,0,9.25,TC,1707347246,2024-02-07
538,karaton,-6.3424,106.1045,22.57,94,88,1.38,ID,1707347814,2024-02-07
539,oamaru,-45.0784,170.9801,16.56,63,34,4.93,NZ,1707347814,2024-02-07
540,queenstown,-31.8976,26.8753,16.09,81,58,1.58,ZA,1707347469,2024-02-07
541,tromso,69.6496,18.957,-9.99,79,0,3.09,NO,1707347815,2024-02-07
542,severnoye,56.3491,78.3619,-5.01,85,100,5.36,RU,1707347815,2024-02-07
543,hadibu,12.65,54.0333,24.91,66,100,5.46,YE,1707347314,2024-02-07
544,champerico,14.3,-91.9167,29.3,63,15,3.11,GT,1707347816,2024-02-07
545,zhenzhou,32.2692,119.1789,-1.73,82,100,1.44,CN,1707347707,2024-02-07
546,inari,68.906,27.0288,-26.89,100,99,0.92,FI,1707347197,2024-02-07
547,narasapur,16.45,81.6667,21.92,91,0,1.12,IN,1707347817,2024-02-07
548,buka,40.8108,69.1986,7.76,65,100,0.22,UZ,1707347817,2024-02-07
549,fort mcmurray,56.7268,-111.381,-4.31,74,17,1.06,CA,1707347448,2024-02-07
550,freetown,8.484,-13.2299,25.4,87,10,2.88,SL,1707347353,2024-02-07
551,salinopolis,-0.6136,-47.3561,26.93,83,71,5.13,BR,1707347415,2024-02-07
552,west bay,19.3667,-81.4167,23.04,59,20,5.66,KY,1707347818,2024-02-07
553,qamdo,31.1667,97.2333,-8.55,65,100,0.54,CN,1707347819,2024-02-07
554,daru,-9.0763,143.2092,25.71,89,99,4.76,PG,1707347532,2024-02-07
555,mejit,10.2753,170.8646,26.66,80,87,9.92,MH,1707347316,2024-02-07
556,bollnas,61.3482,16.3946,-12.74,92,44,1.19,SE,1707347819,2024-02-07
557,nabire,-3.3667,135.4833,26.2,74,100,1.21,ID,1707347326,2024-02-07
558,mondlo,-27.983,30.7177,18.01,88,73,3.48,ZA,1707347820,2024-02-07
559,darovskoy,58.77,47.9564,-14.85,98,100,0.98,RU,1707347820,2024-02-07
560,northam,51.0333,-4.2167,9.81,93,100,6.33,GB,1707347821,2024-02-07
561,bardai,11.65,7.2333,18.43,21,83,4.3,NG,1707347405,2024-02-07
562,nahan,30.55,77.3,7.52,57,0,1.97,IN,1707347821,2024-02-07
563,chui,-33.6971,-53.4616,23.27,79,23,4.79,UY,1707347336,2024-02-07
564,trairi,-3.2778,-39.2689,27.18,81,26,4.2,BR,1707347560,2024-02-07
565,arteche,12.2645,125.4048,24.99,84,26,1.8,PH,1707347822,2024-02-07
